{
"type": "FeatureCollection",
"name": "ecoles",
"features": [
{ "type": "Feature", "properties": { "nom": "Nom école", "rang": "Rang", "adresse": "Montreal, QC, Canada" }, "geometry": { "type": "Point", "coordinates": [ -73.5673919, 45.5018869 ] } },
{ "type": "Feature", "properties": { "nom": "Bienville", "rang": "1", "adresse": "9275 25e Ave, Montréal, QC H1Z 4E2, Canada" }, "geometry": { "type": "Point", "coordinates": [ -73.6225104, 45.583387 ] } },
{ "type": "Feature", "properties": { "nom": "Saint‐Noël‐Chabanel, Pavillon des Bâtisseurs", "rang": "2", "adresse": "8801 25e Ave, Montréal, QC H1Z 4B4, Canada" }, "geometry": { "type": "Point", "coordinates": [ -73.6134561, 45.579179 ] } },
{ "type": "Feature", "properties": { "nom": "Saint‐Noël‐Chabanel, Pavillon des Découvreurs", "rang": "3", "adresse": "8777 Av. 24e, Montréal, QC H1Z 3Z8, Canada" }, "geometry": { "type": "Point", "coordinates": [ -73.6137487, 45.5781594 ] } },
{ "type": "Feature", "properties": { "nom": "Jules‐Verne", "rang": "4", "adresse": "11811 Av. P M Favier, Montréal-Nord, QC H1G 5X4, Canada" }, "geometry": { "type": "Point", "coordinates": [ -73.6200629, 45.613569899999987 ] } },
{ "type": "Feature", "properties": { "nom": "Adélard‐Desrosiers", "rang": "5", "adresse": "12600 Av. Fortin, Montréal-Nord, QC H1G 1G2, Canada" }, "geometry": { "type": "Point", "coordinates": [ -73.6288166, 45.6192055 ] } },
{ "type": "Feature", "properties": { "nom": "Bedford", "rang": "6", "adresse": "3131 Rue Goyer, Montréal, QC H3S 1H7, Canada" }, "geometry": { "type": "Point", "coordinates": [ -73.6332538, 45.5073008 ] } },
{ "type": "Feature", "properties": { "nom": "Barthélemy‐Vimont", "rang": "7", "adresse": "415 Rue Saint-Roch, Montréal, QC H3N 1K2, Canada" }, "geometry": { "type": "Point", "coordinates": [ -73.6285774, 45.5317312 ] } },
{ "type": "Feature", "properties": { "nom": "Louisbourg", "rang": "8", "adresse": "11880 Rue Michel Sarrazin, Montréal, QC H4J 2G7, Canada" }, "geometry": { "type": "Point", "coordinates": [ -73.7098354, 45.5269157 ] } },
{ "type": "Feature", "properties": { "nom": "Barthélemy‐Vimont, Annexe", "rang": "9", "adresse": "630 Rue Saint-Roch, Montréal, QC H3N 1K8, Canada" }, "geometry": { "type": "Point", "coordinates": [ -73.629272, 45.5291686 ] } },
{ "type": "Feature", "properties": { "nom": "Montcalm", "rang": "10", "adresse": "Parc-école Montcalm, 8800 12e Avenue, Montréal, QC H1Z 3J3, Canada" }, "geometry": { "type": "Point", "coordinates": [ -73.6225283, 45.5699887 ] } },
{ "type": "Feature", "properties": { "nom": "Camille‐Laurin", "rang": "11", "adresse": "R. Camille-Laurin, Montréal, QC H1A, Canada" }, "geometry": { "type": "Point", "coordinates": [ -73.5031443, 45.685409 ] } },
{ "type": "Feature", "properties": { "nom": "Champlain", "rang": "12", "adresse": "2260 Rue Logan, Montréal, QC H2K 4K7, Canada" }, "geometry": { "type": "Point", "coordinates": [ -73.5511439, 45.528067 ] } },
{ "type": "Feature", "properties": { "nom": "Victor‐Rousselot", "rang": "13", "adresse": "3525 Rue Sainte-Émilie, Montréal, QC H4C 1Z3, Canada" }, "geometry": { "type": "Point", "coordinates": [ -73.578792, 45.479363 ] } },
{ "type": "Feature", "properties": { "nom": "De la Fraternité", "rang": "14", "adresse": "11241 Av. Drapeau, Montréal-Nord, QC H1H 3K3, Canada" }, "geometry": { "type": "Point", "coordinates": [ -73.6333068, 45.59718 ] } },
{ "type": "Feature", "properties": { "nom": "Barclay", "rang": "15", "adresse": "7941 Av. Wiseman, Montréal, QC H3N 2P2, Canada" }, "geometry": { "type": "Point", "coordinates": [ -73.6353876, 45.5290331 ] } },
{ "type": "Feature", "properties": { "nom": "Le Carignan", "rang": "16", "adresse": "11480 Bd Rolland, Montréal-Nord, QC H1G 3T9, Canada" }, "geometry": { "type": "Point", "coordinates": [ -73.6145653, 45.6105869 ] } },
{ "type": "Feature", "properties": { "nom": "Saint‐Vincent‐Marie", "rang": "17", "adresse": "4601 Rue de Castille, Montréal-Nord, QC H1H 1Y4, Canada" }, "geometry": { "type": "Point", "coordinates": [ -73.6322982, 45.5937788 ] } },
{ "type": "Feature", "properties": { "nom": "Enfant‐Soleil", "rang": "18", "adresse": "1615 Rue Tassé, Saint-Laurent, QC H4L 1R1, Canada" }, "geometry": { "type": "Point", "coordinates": [ -73.6898538, 45.5163901 ] } },
{ "type": "Feature", "properties": { "nom": "Sainte‐Lucie", "rang": "19", "adresse": "8901 Bd Saint-Michel, Montréal, QC H1Z 3G3, Canada" }, "geometry": { "type": "Point", "coordinates": [ -73.6247963, 45.5709391 ] } },
{ "type": "Feature", "properties": { "nom": "Martin‐Bélanger, Édifice Bélanger", "rang": "20", "adresse": "29 Av. Ouellette, Lachine, QC H8R 1C9, Canada" }, "geometry": { "type": "Point", "coordinates": [ -73.6452926, 45.446006 ] } },
{ "type": "Feature", "properties": { "nom": "Martin‐Bélanger, Édifice Martin", "rang": "21", "adresse": "29 Av. Ouellette, Lachine, QC H8R 1C9, Canada" }, "geometry": { "type": "Point", "coordinates": [ -73.6452926, 45.446006 ] } },
{ "type": "Feature", "properties": { "nom": "Sainte‐Odile, Annexe", "rang": "22", "adresse": "12330 Rue Lavigne, Montréal, QC H4J 1Y4, Canada" }, "geometry": { "type": "Point", "coordinates": [ -73.7126063, 45.5366289 ] } },
{ "type": "Feature", "properties": { "nom": "Paul‐Jarry", "rang": "23", "adresse": "Montreal, QC, Canada" }, "geometry": { "type": "Point", "coordinates": [ -73.5673919, 45.5018869 ] } },
{ "type": "Feature", "properties": { "nom": "Martin‐Bélanger, Édifice de la Petite‐Maison", "rang": "24", "adresse": "Montreal, QC, Canada" }, "geometry": { "type": "Point", "coordinates": [ -73.5673919, 45.5018869 ] } },
{ "type": "Feature", "properties": { "nom": "Jean‐Nicolet, Annexe", "rang": "25", "adresse": "11135 Av. Alfred, Montréal-Nord, QC H1G 5B6, Canada" }, "geometry": { "type": "Point", "coordinates": [ -73.6246662, 45.6007587 ] } },
{ "type": "Feature", "properties": { "nom": "Jean‐Nicolet", "rang": "26", "adresse": "11135 Av. Alfred, Montréal-Nord, QC H1G 5B6, Canada" }, "geometry": { "type": "Point", "coordinates": [ -73.6246662, 45.6007587 ] } },
{ "type": "Feature", "properties": { "nom": "Sinclair Laird", "rang": "27", "adresse": "Parc-école Sinclair-Laird, Av. Wiseman, Montréal, QC H3N 2P6, Canada" }, "geometry": { "type": "Point", "coordinates": [ -73.6413695, 45.530079699999987 ] } },
{ "type": "Feature", "properties": { "nom": "Saint‐Rémi", "rang": "28", "adresse": "10152 Av. de Rome, Montréal-Nord, QC H1H 4N5, Canada" }, "geometry": { "type": "Point", "coordinates": [ -73.6361764, 45.5824491 ] } },
{ "type": "Feature", "properties": { "nom": "Saint‐Rémi, Annexe", "rang": "29", "adresse": "4041 Rue Monselet, Montréal-Nord, QC H1H 2C6, Canada" }, "geometry": { "type": "Point", "coordinates": [ -73.6375091, 45.589925 ] } },
{ "type": "Feature", "properties": { "nom": "Sainte‐Catherine‐Labouré", "rang": "30", "adresse": "441 Rue Trudeau, LaSalle, QC H8R 3C3, Canada" }, "geometry": { "type": "Point", "coordinates": [ -73.6401333, 45.4315562 ] } },
{ "type": "Feature", "properties": { "nom": "De la Petite‐Bourgogne", "rang": "31", "adresse": "Little Burgundy, Montreal, QC H3J, Canada" }, "geometry": { "type": "Point", "coordinates": [ -73.5737124, 45.4861081 ] } },
{ "type": "Feature", "properties": { "nom": "Sainte‐Colette", "rang": "32", "adresse": "12001 Av. Jean-Paul-Cardinal, Montréal-Nord, QC H1G 4V1, Canada" }, "geometry": { "type": "Point", "coordinates": [ -73.6301746, 45.6102555 ] } },
{ "type": "Feature", "properties": { "nom": "Laurentide", "rang": "33", "adresse": "465 Rue Cardinal, Montréal, QC H4L 3C5, Canada" }, "geometry": { "type": "Point", "coordinates": [ -73.6750394, 45.5066796 ] } },
{ "type": "Feature", "properties": { "nom": "Saint‐Joseph", "rang": "34", "adresse": "4080 Av. De Lorimier, Montréal, QC H2K 3X7, Canada" }, "geometry": { "type": "Point", "coordinates": [ -73.5665602, 45.5319817 ] } },
{ "type": "Feature", "properties": { "nom": "Henri‐Beaulieu", "rang": "35", "adresse": "235 Rue Bleignier, Saint-Laurent, QC H4N 1B1, Canada" }, "geometry": { "type": "Point", "coordinates": [ -73.6734143, 45.5292086 ] } },
{ "type": "Feature", "properties": { "nom": "Lucille‐Teasdale", "rang": "36", "adresse": "Montreal, QC, Canada" }, "geometry": { "type": "Point", "coordinates": [ -73.5673919, 45.5018869 ] } },
{ "type": "Feature", "properties": { "nom": "René‐Guénette", "rang": "37", "adresse": "11070 Av. de Rome, Montréal-Nord, QC H1H 4P6, Canada" }, "geometry": { "type": "Point", "coordinates": [ -73.6443902, 45.5901743 ] } },
{ "type": "Feature", "properties": { "nom": "Baril", "rang": "38", "adresse": "3603 Rue Adam, Montréal, QC H1W 1Z1, Canada" }, "geometry": { "type": "Point", "coordinates": [ -73.5411546, 45.5441946 ] } },
{ "type": "Feature", "properties": { "nom": "Des Nations", "rang": "39", "adresse": "Montreal, QC, Canada" }, "geometry": { "type": "Point", "coordinates": [ -73.5673919, 45.5018869 ] } },
{ "type": "Feature", "properties": { "nom": "Simonne‐Monet", "rang": "40", "adresse": "3850 Av. Dupuis, Montréal, QC H3T 1E6, Canada" }, "geometry": { "type": "Point", "coordinates": [ -73.6275775, 45.4961878 ] } },
{ "type": "Feature", "properties": { "nom": "Bois‐Franc‐Aquarelle, Édifice Aquarelle", "rang": "41", "adresse": "2080 Rue de Londres, Saint-Laurent, QC H4L 3A5, Canada" }, "geometry": { "type": "Point", "coordinates": [ -73.6992304, 45.522324 ] } },
{ "type": "Feature", "properties": { "nom": "Léonard‐De Vinci, Annexe (préscol. et 1er cycle)", "rang": "42", "adresse": "Montreal, QC, Canada" }, "geometry": { "type": "Point", "coordinates": [ -73.5673919, 45.5018869 ] } },
{ "type": "Feature", "properties": { "nom": "Saint‐Bernardin, Annexe", "rang": "43", "adresse": "7900 8e Avenue, Montréal, QC H1Z 2V9, Canada" }, "geometry": { "type": "Point", "coordinates": [ -73.6094769, 45.5609173 ] } },
{ "type": "Feature", "properties": { "nom": "Saint‐Bernardin", "rang": "44", "adresse": "2950 Rue Jarry E, Montréal, QC H1Z 2C8, Canada" }, "geometry": { "type": "Point", "coordinates": [ -73.611061, 45.561435 ] } },
{ "type": "Feature", "properties": { "nom": "Sainte‐Colette, Annexe", "rang": "45", "adresse": "11960 Bd Sainte-Colette, Montréal-Nord, QC H1G 4V1, Canada" }, "geometry": { "type": "Point", "coordinates": [ -73.6287932, 45.6092923 ] } },
{ "type": "Feature", "properties": { "nom": "Alice‐Parizeau", "rang": "46", "adresse": "11715 Rue Filion, Montréal, QC H4J 1T2, Canada" }, "geometry": { "type": "Point", "coordinates": [ -73.697245, 45.530435 ] } },
{ "type": "Feature", "properties": { "nom": "Notre‐Dame‐du‐Perpétuel‐Secours", "rang": "47", "adresse": "6025 Rue Beaulieu, Montréal, QC H4E 3E7, Canada" }, "geometry": { "type": "Point", "coordinates": [ -73.597516, 45.4578474 ] } },
{ "type": "Feature", "properties": { "nom": "Harfang‐des‐Neiges, Édifice Lauzon", "rang": "48", "adresse": "4770 Rue Pierre-Lauzon, Pierrefonds, QC H8Y 2C5, Canada" }, "geometry": { "type": "Point", "coordinates": [ -73.7830532, 45.5054524 ] } },
{ "type": "Feature", "properties": { "nom": "Jeanne‐LeBer", "rang": "49", "adresse": "2120 Rue Favard, Montréal, QC H3K 1Z7, Canada" }, "geometry": { "type": "Point", "coordinates": [ -73.5562669, 45.4772679 ] } },
{ "type": "Feature", "properties": { "nom": "Alphonse‐Pesant", "rang": "50", "adresse": "4600 Rue de Compiègne, Montréal, QC H1R 1S7, Canada" }, "geometry": { "type": "Point", "coordinates": [ -73.6034225, 45.5795704 ] } },
{ "type": "Feature", "properties": { "nom": "Nom école", "rang": "Rang", "adresse": "Montreal, QC, Canada" }, "geometry": { "type": "Point", "coordinates": [ -73.5673919, 45.5018869 ] } },
{ "type": "Feature", "properties": { "nom": "Léonard‐De Vinci (2e et 3e cycles)", "rang": "51", "adresse": "Montreal, QC, Canada" }, "geometry": { "type": "Point", "coordinates": [ -73.5673919, 45.5018869 ] } },
{ "type": "Feature", "properties": { "nom": "Sainte‐Bernadette‐Soubirous, Annexe", "rang": "52", "adresse": "6855 16e Avenue, Montréal, QC H1X 2T5, Canada" }, "geometry": { "type": "Point", "coordinates": [ -73.588879, 45.5604763 ] } },
{ "type": "Feature", "properties": { "nom": "Du Petit‐Chapiteau", "rang": "53", "adresse": "9343 Rue Jean-Milot, LaSalle, QC H8R 1Y7, Canada" }, "geometry": { "type": "Point", "coordinates": [ -73.641117, 45.4294776 ] } },
{ "type": "Feature", "properties": { "nom": "Bois‐Franc‐Aquarelle, Édifice Bois‐Franc", "rang": "54", "adresse": "2080 Rue de Londres, Saint-Laurent, QC H4L 3A5, Canada" }, "geometry": { "type": "Point", "coordinates": [ -73.6992304, 45.522324 ] } },
{ "type": "Feature", "properties": { "nom": "Saint‐Pascal‐Baylon", "rang": "55", "adresse": "6320 Chem. de la Côte-des-Neiges, Montréal, QC H3S 2A4, Canada" }, "geometry": { "type": "Point", "coordinates": [ -73.634375100000014, 45.5016034 ] } },
{ "type": "Feature", "properties": { "nom": "Laurendeau‐Dunton", "rang": "56", "adresse": "1515 Rue Rancourt, Lasalle, Quebec H8N 1R7 Rue Rancourt, LaSalle, QC H8N 1R7, Canada" }, "geometry": { "type": "Point", "coordinates": [ -73.6264173, 45.4286473 ] } },
{ "type": "Feature", "properties": { "nom": "Saint‐François‐d'Assise", "rang": "57", "adresse": "2150 Rue Liébert, Montréal, QC H1L 5R1, Canada" }, "geometry": { "type": "Point", "coordinates": [ -73.5183088, 45.5940596 ] } },
{ "type": "Feature", "properties": { "nom": "Saint‐Raymond", "rang": "58", "adresse": "2055 Av d'Oxford, Montréal, QC H4A 2X6, Canada" }, "geometry": { "type": "Point", "coordinates": [ -73.6101029, 45.4693234 ] } },
{ "type": "Feature", "properties": { "nom": "Coronation", "rang": "59", "adresse": "Montreal, QC, Canada" }, "geometry": { "type": "Point", "coordinates": [ -73.5673919, 45.5018869 ] } },
{ "type": "Feature", "properties": { "nom": "Sainte‐Bernadette‐Soubirous", "rang": "60", "adresse": "6855 16e Avenue, Montréal, QC H1X 2T5, Canada" }, "geometry": { "type": "Point", "coordinates": [ -73.588879, 45.5604763 ] } },
{ "type": "Feature", "properties": { "nom": "Marie‐de‐l'Incarnation", "rang": "61", "adresse": "5446 Rue Angers, Montréal, QC H4E 4A3, Canada" }, "geometry": { "type": "Point", "coordinates": [ -73.584376, 45.464211 ] } },
{ "type": "Feature", "properties": { "nom": "Harfang‐des‐Neiges, Édifice Gouin", "rang": "62", "adresse": "9506 Boul Gouin O, Pierrefonds - Roxboro, QC H8Y 1T8, Canada" }, "geometry": { "type": "Point", "coordinates": [ -73.7756214, 45.5053365 ] } },
{ "type": "Feature", "properties": { "nom": "Sainte‐Gertrude", "rang": "63", "adresse": "11813 Bd Sainte-Gertrude, Montréal-Nord, QC H1G 5P8, Canada" }, "geometry": { "type": "Point", "coordinates": [ -73.6341242, 45.604609 ] } },
{ "type": "Feature", "properties": { "nom": "Saint‐Simon‐Apôtre", "rang": "64", "adresse": "195 Rue de Beauharnois O, Montréal, QC H2N 1K1, Canada" }, "geometry": { "type": "Point", "coordinates": [ -73.6471348, 45.539655 ] } },
{ "type": "Feature", "properties": { "nom": "Pie XII", "rang": "65", "adresse": "5455 Rue Dujarié, Saint-Léonard, QC H1R 1K4, Canada" }, "geometry": { "type": "Point", "coordinates": [ -73.6047119, 45.5908995 ] } },
{ "type": "Feature", "properties": { "nom": "Des Grands‐Êtres", "rang": "66", "adresse": "1150 Rue Deguire, Saint-Laurent, QC H4L 1M2, Canada" }, "geometry": { "type": "Point", "coordinates": [ -73.6866946, 45.521795399999988 ] } },
{ "type": "Feature", "properties": { "nom": "Général Vanier", "rang": "67", "adresse": "4555 Rue Buies, Saint-Léonard, QC H1S 1J2, Canada" }, "geometry": { "type": "Point", "coordinates": [ -73.590311, 45.572049 ] } },
{ "type": "Feature", "properties": { "nom": "Lambert‐Closse", "rang": "68", "adresse": "5840 Rue Saint-Urbain, Montréal, QC H2T 2X5, Canada" }, "geometry": { "type": "Point", "coordinates": [ -73.6038102, 45.5262557 ] } },
{ "type": "Feature", "properties": { "nom": "L'Eau‐Vive", "rang": "69", "adresse": "171 Av. Orchard, LaSalle, QC H8R 0A2, Canada" }, "geometry": { "type": "Point", "coordinates": [ -73.6474576, 45.4222755 ] } },
{ "type": "Feature", "properties": { "nom": "Pierre‐de‐Coubertin", "rang": "70", "adresse": "4660 Rue de Charleroi, Montréal-Nord, QC H1H 1T7, Canada" }, "geometry": { "type": "Point", "coordinates": [ -73.6326171, 45.5954168 ] } },
{ "type": "Feature", "properties": { "nom": "Les‐Enfants‐du‐Monde", "rang": "71", "adresse": "2915 Rue Marcel, Saint-Laurent, QC H4R 1B2, Canada" }, "geometry": { "type": "Point", "coordinates": [ -73.7253883, 45.5150863 ] } },
{ "type": "Feature", "properties": { "nom": "Très‐Saint‐Sacrement, Édifice de l'Avenir", "rang": "72", "adresse": "704 5e Avenue, Lachine, QC H8S 2W4, Canada" }, "geometry": { "type": "Point", "coordinates": [ -73.6683086, 45.4421779 ] } },
{ "type": "Feature", "properties": { "nom": "Saint‐Zotique", "rang": "73", "adresse": "4841 Av. Palm, Montréal, QC H4C 1Y1, Canada" }, "geometry": { "type": "Point", "coordinates": [ -73.589256400000011, 45.4712164 ] } },
{ "type": "Feature", "properties": { "nom": "Marie‐Rivier, Pavillon Louvain", "rang": "74", "adresse": "9200 8e Avenue, Montréal, QC H1Z 2Y5, Canada" }, "geometry": { "type": "Point", "coordinates": [ -73.6313649, 45.570815200000013 ] } },
{ "type": "Feature", "properties": { "nom": "Marie‐Rivier, Pavillon Legendre", "rang": "75", "adresse": "9066 8e Avenue, Montréal, QC H1Z 2Y5, Canada" }, "geometry": { "type": "Point", "coordinates": [ -73.6292882, 45.5700408 ] } },
{ "type": "Feature", "properties": { "nom": "Notre‐Dame‐des‐Neiges", "rang": "76", "adresse": "14425 Rue Notre Dame E, Pointe-aux-Trembles, QC H1A 1V6, Canada" }, "geometry": { "type": "Point", "coordinates": [ -73.493781, 45.6734617 ] } },
{ "type": "Feature", "properties": { "nom": "Philippe‐Morin", "rang": "77", "adresse": "1825 Rue Provost, Lachine, QC H8S 1P5, Canada" }, "geometry": { "type": "Point", "coordinates": [ -73.680447, 45.4417434 ] } },
{ "type": "Feature", "properties": { "nom": "Ludger‐Duvernay", "rang": "78", "adresse": "Montreal, QC, Canada" }, "geometry": { "type": "Point", "coordinates": [ -73.5673919, 45.5018869 ] } },
{ "type": "Feature", "properties": { "nom": "Saint‐Clément", "rang": "79", "adresse": "4770 Rue la Fontaine, Montréal, QC H1V 3B4, Canada" }, "geometry": { "type": "Point", "coordinates": [ -73.5340906, 45.5565803 ] } },
{ "type": "Feature", "properties": { "nom": "Sainte‐Odile", "rang": "80", "adresse": "12055 Rue Dépatie, Montréal, QC H4J 1W9, Canada" }, "geometry": { "type": "Point", "coordinates": [ -73.7069544, 45.5345171 ] } },
{ "type": "Feature", "properties": { "nom": "Des Berges‐de‐Lachine", "rang": "81", "adresse": "50 34e Avenue, Lachine, QC H8T 1Z2, Canada" }, "geometry": { "type": "Point", "coordinates": [ -73.6937341, 45.4340627 ] } },
{ "type": "Feature", "properties": { "nom": "Perce‐Neige", "rang": "82", "adresse": "4770 Bd Lalande, Pierrefonds - Roxboro, QC H8Y 1V2, Canada" }, "geometry": { "type": "Point", "coordinates": [ -73.7813474, 45.5062667 ] } },
{ "type": "Feature", "properties": { "nom": "Louis‐Dupire", "rang": "83", "adresse": "1S4, 6400 Pierre-de Coubertin Ave, Montreal, QC H1N 1S4, Canada" }, "geometry": { "type": "Point", "coordinates": [ -73.5359967, 45.577869799999988 ] } },
{ "type": "Feature", "properties": { "nom": "Our Lady of Pompei", "rang": "84", "adresse": "9944 Bd Saint-Michel, Montréal-Nord, QC H1H 5G8, Canada" }, "geometry": { "type": "Point", "coordinates": [ -73.6398389, 45.5768798 ] } },
{ "type": "Feature", "properties": { "nom": "Charles‐Lemoyne", "rang": "85", "adresse": "2001 Rue Mullins, Montréal, QC H3K 1N9, Canada" }, "geometry": { "type": "Point", "coordinates": [ -73.5616277, 45.4809967 ] } },
{ "type": "Feature", "properties": { "nom": "François‐La‐Bernarde", "rang": "86", "adresse": "950 Rue Pierre Lacroix, Pointe-aux-Trembles, QC H1B 3C8, Canada" }, "geometry": { "type": "Point", "coordinates": [ -73.4950482, 45.6467803 ] } },
{ "type": "Feature", "properties": { "nom": "Saint‐Benoît", "rang": "87", "adresse": "140 Carr Benoit, Montréal, QC H4N 2H4, Canada" }, "geometry": { "type": "Point", "coordinates": [ -73.6630311, 45.5161158 ] } },
{ "type": "Feature", "properties": { "nom": "Sainte‐Marguerite‐Bourgeoys", "rang": "88", "adresse": "11625 Rue de la Gauchetière, Pointe-aux-Trembles, QC H1B 2H8, Canada" }, "geometry": { "type": "Point", "coordinates": [ -73.5001069, 45.635885 ] } },
{ "type": "Feature", "properties": { "nom": "La Dauversière", "rang": "89", "adresse": "5485 Rue Jean-Talon E, Montréal, QC H1S 9Y9, Canada" }, "geometry": { "type": "Point", "coordinates": [ -73.581335, 45.5810421 ] } },
{ "type": "Feature", "properties": { "nom": "Gerald McShane", "rang": "90", "adresse": "6111 Bd Maurice-Duplessis, Montréal-Nord, QC H1G 1Y6, Canada" }, "geometry": { "type": "Point", "coordinates": [ -73.6204053, 45.6151204 ] } },
{ "type": "Feature", "properties": { "nom": "Saint‐Gabriel‐Lalemant", "rang": "91", "adresse": "7350 Rue Garnier, Montréal, QC H2E 2A3, Canada" }, "geometry": { "type": "Point", "coordinates": [ -73.6114888, 45.5470923 ] } },
{ "type": "Feature", "properties": { "nom": "Sainte‐Germaine‐Cousin", "rang": "92", "adresse": "1880 48e Avenue, Rivière-des-Prairies - Pointe-aux-Trembles, QC H1A 2Y5, Canada" }, "geometry": { "type": "Point", "coordinates": [ -73.5013832, 45.6676385 ] } },
{ "type": "Feature", "properties": { "nom": "Félix‐Leclerc", "rang": "93", "adresse": "1750 Bd du Tricentenaire, Montréal, QC H1B 3B1, Canada" }, "geometry": { "type": "Point", "coordinates": [ -73.5041619, 45.651296 ] } },
{ "type": "Feature", "properties": { "nom": "Félix‐Leclerc, Occupation transitoire", "rang": "94", "adresse": "1750 Bd du Tricentenaire, Montréal, QC H1B 3B1, Canada" }, "geometry": { "type": "Point", "coordinates": [ -73.5041619, 45.651296 ] } },
{ "type": "Feature", "properties": { "nom": "Saint‐Jean‐de‐Matha, Édifice Coeur‐Immaculé‐de‐Marie", "rang": "95", "adresse": "1975 Bd Desmarchais, Montréal, QC H4E 2B9, Canada" }, "geometry": { "type": "Point", "coordinates": [ -73.5966111, 45.4484013 ] } },
{ "type": "Feature", "properties": { "nom": "Terre‐des‐Jeunes", "rang": "96", "adresse": "7900 Rue Doyle, LaSalle, QC H8N 0E9, Canada" }, "geometry": { "type": "Point", "coordinates": [ -73.6302584, 45.438328299999988 ] } },
{ "type": "Feature", "properties": { "nom": "Jean‐Grou", "rang": "97", "adresse": "805 Rue Tassé, Saint-Laurent, QC H4L 1N8, Canada" }, "geometry": { "type": "Point", "coordinates": [ -73.6802162, 45.5236779 ] } },
{ "type": "Feature", "properties": { "nom": "Saint Gabriel", "rang": "98", "adresse": "Montreal, QC, Canada" }, "geometry": { "type": "Point", "coordinates": [ -73.5673919, 45.5018869 ] } },
{ "type": "Feature", "properties": { "nom": "Saint‐Jean‐de‐Matha, Édifice Honoré‐Mercier", "rang": "99", "adresse": "Montreal, QC, Canada" }, "geometry": { "type": "Point", "coordinates": [ -73.5673919, 45.5018869 ] } },
{ "type": "Feature", "properties": { "nom": "Cardinal‐Léger", "rang": "100", "adresse": "2000 Rue Decelles, Saint-Laurent, QC H4M 1B3, Canada" }, "geometry": { "type": "Point", "coordinates": [ -73.687688400000013, 45.506679899999988 ] } },
{ "type": "Feature", "properties": { "nom": "Nom école", "rang": "Rang", "adresse": "Montreal, QC, Canada" }, "geometry": { "type": "Point", "coordinates": [ -73.5673919, 45.5018869 ] } },
{ "type": "Feature", "properties": { "nom": "De la Mosaïque", "rang": "101", "adresse": "5621 Av. McMurray, Côte Saint-Luc, QC H4W 2G1, Canada" }, "geometry": { "type": "Point", "coordinates": [ -73.6655638, 45.4631924 ] } },
{ "type": "Feature", "properties": { "nom": "Saint‐Mathieu", "rang": "102", "adresse": "7230 8e Avenue, Montréal, QC H2A 3C7, Canada" }, "geometry": { "type": "Point", "coordinates": [ -73.6001424, 45.5568877 ] } },
{ "type": "Feature", "properties": { "nom": "Garneau", "rang": "103", "adresse": "1808 Av. Papineau, Montréal, QC H2K 4J1, Canada" }, "geometry": { "type": "Point", "coordinates": [ -73.5574341, 45.5245915 ] } },
{ "type": "Feature", "properties": { "nom": "Très‐Saint‐Sacrement, Édifice du Savoir", "rang": "104", "adresse": "704 5e Avenue, Lachine, QC H8S 2W4, Canada" }, "geometry": { "type": "Point", "coordinates": [ -73.6683086, 45.4421779 ] } },
{ "type": "Feature", "properties": { "nom": "Saint‐Octave", "rang": "105", "adresse": "11171 Rue Notre Dame E, Montréal-Est, QC H1B 2V7, Canada" }, "geometry": { "type": "Point", "coordinates": [ -73.4991146, 45.6291295 ] } },
{ "type": "Feature", "properties": { "nom": "Wilfrid‐Bastien", "rang": "106", "adresse": "8155 Rue Collerette, Saint-Léonard, QC H1P 2V6, Canada" }, "geometry": { "type": "Point", "coordinates": [ -73.5926379, 45.585614199999988 ] } },
{ "type": "Feature", "properties": { "nom": "Jacques‐Rousseau, Chénier", "rang": "107", "adresse": "7455 Rue Jarry E, Anjou, QC H1J 1H3, Canada" }, "geometry": { "type": "Point", "coordinates": [ -73.5733815, 45.6055472 ] } },
{ "type": "Feature", "properties": { "nom": "LaSalle Elementary Senior", "rang": "108", "adresse": "1555 Rue Rancourt, LaSalle, QC H8N 1R7, Canada" }, "geometry": { "type": "Point", "coordinates": [ -73.6275656, 45.4291002 ] } },
{ "type": "Feature", "properties": { "nom": "LaSalle Elementary Junior", "rang": "109", "adresse": "8340 Rue David-Boyer, LaSalle, QC H8N 2A1, Canada" }, "geometry": { "type": "Point", "coordinates": [ -73.6262362, 45.432488 ] } },
{ "type": "Feature", "properties": { "nom": "Saint‐Nom‐de‐Jésus", "rang": "110", "adresse": "4131 Rue Adam, Montréal, QC H1V 1S8, Canada" }, "geometry": { "type": "Point", "coordinates": [ -73.5371602, 45.5495159 ] } },
{ "type": "Feature", "properties": { "nom": "Ferland", "rang": "111", "adresse": "8755 Rue Belcourt, Saint-Léonard, QC H1P 2L9, Canada" }, "geometry": { "type": "Point", "coordinates": [ -73.5981093, 45.5951069 ] } },
{ "type": "Feature", "properties": { "nom": "Denise‐Pelletier", "rang": "112", "adresse": "12160 27e Avenue, Montréal, QC H1E 1Z5, Canada" }, "geometry": { "type": "Point", "coordinates": [ -73.589798, 45.63777 ] } },
{ "type": "Feature", "properties": { "nom": "Pierre‐Rémy", "rang": "113", "adresse": "360 Av. 80e, LaSalle, QC H8R 2T3, Canada" }, "geometry": { "type": "Point", "coordinates": [ -73.6365512, 45.41955 ] } },
{ "type": "Feature", "properties": { "nom": "Des Roseraies", "rang": "114", "adresse": "6440 Bd des Galeries d'Anjou, Anjou, QC H1M 1W2, Canada" }, "geometry": { "type": "Point", "coordinates": [ -73.5542599, 45.5940373 ] } },
{ "type": "Feature", "properties": { "nom": "Victor‐Lavigne", "rang": "115", "adresse": "5400 Bd Couture, Saint-Léonard, QC H1R 1C7, Canada" }, "geometry": { "type": "Point", "coordinates": [ -73.6104317, 45.592517 ] } },
{ "type": "Feature", "properties": { "nom": "Dollard‐des‐Ormeaux", "rang": "116", "adresse": "35 Av. Anselme-Lavigne, Dollard-des-Ormeaux, QC H9A 1N5, Canada" }, "geometry": { "type": "Point", "coordinates": [ -73.8200289, 45.5005537 ] } },
{ "type": "Feature", "properties": { "nom": "Parkdale", "rang": "117", "adresse": "2020 Rue Aylmer, Montréal, QC H3A 2E1, Canada" }, "geometry": { "type": "Point", "coordinates": [ -73.5711924, 45.5053496 ] } },
{ "type": "Feature", "properties": { "nom": "Gabrielle‐Roy", "rang": "118", "adresse": "5950 Rue Honoré Mercier, Saint-Léonard, QC H1P 3E4, Canada" }, "geometry": { "type": "Point", "coordinates": [ -73.6017465, 45.5971728 ] } },
{ "type": "Feature", "properties": { "nom": "Saint‐Anselme", "rang": "119", "adresse": "2743 Rue de Rouen, Montréal, QC H2K 1N2, Canada" }, "geometry": { "type": "Point", "coordinates": [ -73.55483670000001, 45.5362914 ] } },
{ "type": "Feature", "properties": { "nom": "Saint‐Mathieu, Annexe", "rang": "120", "adresse": "7110 8e Avenue, Montréal, QC H2A 3C4, Canada" }, "geometry": { "type": "Point", "coordinates": [ -73.5987192, 45.5562319 ] } },
{ "type": "Feature", "properties": { "nom": "Sainte‐Catherine‐de‐Sienne", "rang": "121", "adresse": "7055 Av. Somerled, Montréal, QC H4V 1V8, Canada" }, "geometry": { "type": "Point", "coordinates": [ -73.6440051, 45.4611611 ] } },
{ "type": "Feature", "properties": { "nom": "Marguerite‐Bourgeoys", "rang": "122", "adresse": "2070 Rue Plessis, Montréal, QC H2L 2Y3, Canada" }, "geometry": { "type": "Point", "coordinates": [ -73.561949, 45.523950199999987 ] } },
{ "type": "Feature", "properties": { "nom": "Maple Grove", "rang": "123", "adresse": "Av. Maple, Montréal, QC H3K, Canada" }, "geometry": { "type": "Point", "coordinates": [ -73.5599618, 45.4822778 ] } },
{ "type": "Feature", "properties": { "nom": "Saint‐Grégoire‐le‐Grand", "rang": "124", "adresse": "7950 R. Cartier, Montréal, QC H2E 2K2, Canada" }, "geometry": { "type": "Point", "coordinates": [ -73.6167293, 45.552805199999987 ] } },
{ "type": "Feature", "properties": { "nom": "Armand‐Lavergne", "rang": "125", "adresse": "2600 Av. Fletcher, Montréal, QC H1L 4C5, Canada" }, "geometry": { "type": "Point", "coordinates": [ -73.5177263, 45.6090263 ] } },
{ "type": "Feature", "properties": { "nom": "Jean‐Baptiste‐Meilleur", "rang": "126", "adresse": "2237 Rue Fullum, Montréal, QC H2K 3P1, Canada" }, "geometry": { "type": "Point", "coordinates": [ -73.5579646, 45.5320839 ] } },
{ "type": "Feature", "properties": { "nom": "Fernand‐Gauthier", "rang": "127", "adresse": "12600 Av. Paul-Dufault, Montréal, QC H1E 2B6, Canada" }, "geometry": { "type": "Point", "coordinates": [ -73.5920105, 45.6433265 ] } },
{ "type": "Feature", "properties": { "nom": "Marc‐Favreau, Annexe", "rang": "128", "adresse": "4635 Pl. Borden, Montréal, QC H4B 1A1, Canada" }, "geometry": { "type": "Point", "coordinates": [ -73.6354284, 45.4680648 ] } },
{ "type": "Feature", "properties": { "nom": "Gilles‐Vigneault", "rang": "129", "adresse": "11400 Av. de Poutrincourt, Montréal, QC H3M 1Z7, Canada" }, "geometry": { "type": "Point", "coordinates": [ -73.6921595, 45.5318878 ] } },
{ "type": "Feature", "properties": { "nom": "St. Monica", "rang": "130", "adresse": "Montreal, QC, Canada" }, "geometry": { "type": "Point", "coordinates": [ -73.5673919, 45.5018869 ] } },
{ "type": "Feature", "properties": { "nom": "Maisonneuve", "rang": "131", "adresse": "1680 Av Morgan, Montréal, QC H1V 2P9, Canada" }, "geometry": { "type": "Point", "coordinates": [ -73.5365695, 45.5521379 ] } },
{ "type": "Feature", "properties": { "nom": "Nesbitt", "rang": "132", "adresse": "6108 8e Avenue, Montréal, QC H1Y 2M2, Canada" }, "geometry": { "type": "Point", "coordinates": [ -73.583498, 45.551676 ] } },
{ "type": "Feature", "properties": { "nom": "Du Petit‐Collège", "rang": "133", "adresse": "9343 Rue Jean-Milot, LaSalle, QC H8R 1Y7, Canada" }, "geometry": { "type": "Point", "coordinates": [ -73.641117, 45.4294776 ] } },
{ "type": "Feature", "properties": { "nom": "Judith‐Jasmin", "rang": "134", "adresse": "Av. Judith-Jasmin, Montréal, QC H1J, Canada" }, "geometry": { "type": "Point", "coordinates": [ -73.5782093, 45.6015235 ] } },
{ "type": "Feature", "properties": { "nom": "Saint‐Antoine‐Marie‐Claret", "rang": "135", "adresse": "10600 Av. Larose, Montréal, QC H2B 1Z3, Canada" }, "geometry": { "type": "Point", "coordinates": [ -73.6496698, 45.5798275 ] } },
{ "type": "Feature", "properties": { "nom": "Gilles‐Vigneault, Annexe temporaire", "rang": "136", "adresse": "2005 Rue Victor Doré, Montréal, QC H3M 1S4, Canada" }, "geometry": { "type": "Point", "coordinates": [ -73.6891467, 45.5362745 ] } },
{ "type": "Feature", "properties": { "nom": "Jacques‐Rousseau", "rang": "137", "adresse": "7455 Rue Jarry E, Anjou, QC H1J 1H3, Canada" }, "geometry": { "type": "Point", "coordinates": [ -73.5733815, 45.6055472 ] } },
{ "type": "Feature", "properties": { "nom": "Notre‐Dame‐de‐l'Assomption", "rang": "138", "adresse": "2430 Rue Darling, Montréal, QC H1W 2X1, Canada" }, "geometry": { "type": "Point", "coordinates": [ -73.55236690000001, 45.5439928 ] } },
{ "type": "Feature", "properties": { "nom": "Westmount Park", "rang": "139", "adresse": "Westmount, QC, Canada" }, "geometry": { "type": "Point", "coordinates": [ -73.5956993, 45.485718899999988 ] } },
{ "type": "Feature", "properties": { "nom": "François‐de‐Laval, Annexe", "rang": "140", "adresse": "Laval, QC, Canada" }, "geometry": { "type": "Point", "coordinates": [ -73.712409, 45.6066487 ] } },
{ "type": "Feature", "properties": { "nom": "Notre‐Dame‐de‐Lourdes", "rang": "141", "adresse": "504 5e Avenue, Verdun, QC H4G 2Z1, Canada" }, "geometry": { "type": "Point", "coordinates": [ -73.5717796, 45.456182299999988 ] } },
{ "type": "Feature", "properties": { "nom": "Cardinal‐Léger", "rang": "142", "adresse": "2000 Rue Decelles, Saint-Laurent, QC H4M 1B3, Canada" }, "geometry": { "type": "Point", "coordinates": [ -73.687688400000013, 45.506679899999988 ] } },
{ "type": "Feature", "properties": { "nom": "Notre‐Dame‐des‐Victoires", "rang": "143", "adresse": "2720 Rue Bossuet, Montréal, QC H1N 2S6, Canada" }, "geometry": { "type": "Point", "coordinates": [ -73.5401782, 45.5737819 ] } },
{ "type": "Feature", "properties": { "nom": "Dalkeith", "rang": "144", "adresse": "7951 Av. de Dalkeith, Anjou, QC H1K 3X6, Canada" }, "geometry": { "type": "Point", "coordinates": [ -73.5505924, 45.6025905 ] } },
{ "type": "Feature", "properties": { "nom": "Guillaume‐Couture", "rang": "145", "adresse": "6300 Av. Albani, Montréal, QC H1M 2R8, Canada" }, "geometry": { "type": "Point", "coordinates": [ -73.5605798, 45.583106699999988 ] } },
{ "type": "Feature", "properties": { "nom": "Verdun", "rang": "146", "adresse": "5290 Rue de Verdun, Verdun, QC H4H 1K1, Canada" }, "geometry": { "type": "Point", "coordinates": [ -73.571901, 45.4540663 ] } },
{ "type": "Feature", "properties": { "nom": "Notre‐Dame‐des‐Victoires, Annexe", "rang": "147", "adresse": "6120 Rue la Fontaine, Montréal, QC H1N 2C1, Canada" }, "geometry": { "type": "Point", "coordinates": [ -73.524462, 45.5711376 ] } },
{ "type": "Feature", "properties": { "nom": "Le Plateau", "rang": "148", "adresse": "3700 Av. Calixa-Lavallée, Montréal, QC H2L 3A8, Canada" }, "geometry": { "type": "Point", "coordinates": [ -73.5672906, 45.5253668 ] } },
{ "type": "Feature", "properties": { "nom": "François‐de‐Laval", "rang": "149", "adresse": "Laval, QC, Canada" }, "geometry": { "type": "Point", "coordinates": [ -73.712409, 45.6066487 ] } },
{ "type": "Feature", "properties": { "nom": "Iona", "rang": "150", "adresse": "Montreal, QC, Canada" }, "geometry": { "type": "Point", "coordinates": [ -73.5673919, 45.5018869 ] } },
{ "type": "Feature", "properties": { "nom": "Nom école", "rang": "Rang", "adresse": "Montreal, QC, Canada" }, "geometry": { "type": "Point", "coordinates": [ -73.5673919, 45.5018869 ] } },
{ "type": "Feature", "properties": { "nom": "Saint‐François‐Solano", "rang": "151", "adresse": "3580 Rue Dandurand, Montréal, QC H1X 1N6, Canada" }, "geometry": { "type": "Point", "coordinates": [ -73.5740798, 45.5551112 ] } },
{ "type": "Feature", "properties": { "nom": "Lévis‐Sauvé", "rang": "152", "adresse": "Rue Lévis-Sauvé, Montréal, QC H8P, Canada" }, "geometry": { "type": "Point", "coordinates": [ -73.6075427, 45.4227907 ] } },
{ "type": "Feature", "properties": { "nom": "Du Bois‐de‐Liesse", "rang": "153", "adresse": "175 Rue Sonata, Dollard-des-Ormeaux, QC H9B 2M6, Canada" }, "geometry": { "type": "Point", "coordinates": [ -73.7868075, 45.493261 ] } },
{ "type": "Feature", "properties": { "nom": "Dante", "rang": "154", "adresse": "Montreal, QC, Canada" }, "geometry": { "type": "Point", "coordinates": [ -73.5673919, 45.5018869 ] } },
{ "type": "Feature", "properties": { "nom": "Cedarcrest", "rang": "155", "adresse": "1505 Rue Muir, Saint-Laurent, QC H4L 4T1, Canada" }, "geometry": { "type": "Point", "coordinates": [ -73.6802489, 45.5265159 ] } },
{ "type": "Feature", "properties": { "nom": "Katimavik, Édifice Katimavik", "rang": "156", "adresse": "1700 Rue Decelles, Saint-Laurent, QC H4L 0B9, Canada" }, "geometry": { "type": "Point", "coordinates": [ -73.6819085, 45.5106912 ] } },
{ "type": "Feature", "properties": { "nom": "Du Grand‐Héron", "rang": "157", "adresse": "7676 Rue Centrale, LaSalle, QC H8P 1L5, Canada" }, "geometry": { "type": "Point", "coordinates": [ -73.5970993, 45.4304962 ] } },
{ "type": "Feature", "properties": { "nom": "Henri‐Forest", "rang": "158", "adresse": "100 Av. du Trésor Caché, LaSalle, QC H8R 3K3, Canada" }, "geometry": { "type": "Point", "coordinates": [ -73.6527558, 45.4253513 ] } },
{ "type": "Feature", "properties": { "nom": "John Caboto Academy", "rang": "159", "adresse": "8955 Rue Meunier, Montréal, QC H2N 1W3, Canada" }, "geometry": { "type": "Point", "coordinates": [ -73.6483615, 45.5393491 ] } },
{ "type": "Feature", "properties": { "nom": "Des Cinq‐Continents, Pavillon Dupuis", "rang": "160", "adresse": "5530 Av. Dupuis, Montréal, QC H3X 1N8, Canada" }, "geometry": { "type": "Point", "coordinates": [ -73.6383963, 45.4837548 ] } },
{ "type": "Feature", "properties": { "nom": "École internationale Wilfrid‐Pelletier, Édifice W‐P", "rang": "161", "adresse": "8301 Bd Wilfrid Pelletier, Anjou, QC H1K 1M2, Canada" }, "geometry": { "type": "Point", "coordinates": [ -73.5531686, 45.6074244 ] } },
{ "type": "Feature", "properties": { "nom": "Saints‐Martyrs‐Canadiens", "rang": "162", "adresse": "Montreal, QC, Canada" }, "geometry": { "type": "Point", "coordinates": [ -73.5673919, 45.5018869 ] } },
{ "type": "Feature", "properties": { "nom": "Pierre‐de‐Coubertin", "rang": "163", "adresse": "4660 Rue de Charleroi, Montréal-Nord, QC H1H 1T7, Canada" }, "geometry": { "type": "Point", "coordinates": [ -73.6326171, 45.5954168 ] } },
{ "type": "Feature", "properties": { "nom": "Édouard‐Laurin", "rang": "164", "adresse": "1085 Rue Tassé, Saint-Laurent, QC H4L 1P7, Canada" }, "geometry": { "type": "Point", "coordinates": [ -73.6838141, 45.521078800000012 ] } },
{ "type": "Feature", "properties": { "nom": "Elizabeth Ballantyne", "rang": "165", "adresse": "314 Rue Northview, Montréal-Ouest, QC H4X 1E2, Canada" }, "geometry": { "type": "Point", "coordinates": [ -73.6544476, 45.4546564 ] } },
{ "type": "Feature", "properties": { "nom": "Philippe‐Labarre", "rang": "166", "adresse": "3125 Av. Fletcher, Montréal, QC H1L 4E2, Canada" }, "geometry": { "type": "Point", "coordinates": [ -73.5239861, 45.6105961 ] } },
{ "type": "Feature", "properties": { "nom": "La Visitation", "rang": "167", "adresse": "Montreal, QC, Canada" }, "geometry": { "type": "Point", "coordinates": [ -73.5673919, 45.5018869 ] } },
{ "type": "Feature", "properties": { "nom": "Notre‐Dame‐des‐Rapides", "rang": "168", "adresse": "8585 Rue George, LaSalle, QC H8P 1G5, Canada" }, "geometry": { "type": "Point", "coordinates": [ -73.6191682, 45.4206192 ] } },
{ "type": "Feature", "properties": { "nom": "École internationale Wilfrid‐Pelletier, Annexe", "rang": "169", "adresse": "7741 Av. du Ronceray, Anjou, QC H1K 3W7, Canada" }, "geometry": { "type": "Point", "coordinates": [ -73.5602096, 45.6062175 ] } },
{ "type": "Feature", "properties": { "nom": "Notre‐Dame‐de‐la‐Paix", "rang": "170", "adresse": "454 CAISSE AVE, Verdun, QC H4G 2C8, Canada" }, "geometry": { "type": "Point", "coordinates": [ -73.569057, 45.4702652 ] } },
{ "type": "Feature", "properties": { "nom": "Saints‐Martyrs‐Canadiens, Annexe", "rang": "171", "adresse": "Montreal, QC, Canada" }, "geometry": { "type": "Point", "coordinates": [ -73.5673919, 45.5018869 ] } },
{ "type": "Feature", "properties": { "nom": "Marc‐Aurèle‐Fortin", "rang": "172", "adresse": "12230 Av. Fernand-Gauthier, Montréal, QC H1E 5N4, Canada" }, "geometry": { "type": "Point", "coordinates": [ -73.6005958, 45.6320169 ] } },
{ "type": "Feature", "properties": { "nom": "Saint‐Jean‐Baptiste‐de‐la‐Salle", "rang": "173", "adresse": "2355 Bd Pie-IX, Montréal, QC H1V 2E6, Canada" }, "geometry": { "type": "Point", "coordinates": [ -73.5468021, 45.5525822 ] } },
{ "type": "Feature", "properties": { "nom": "Des Découvreurs", "rang": "174", "adresse": "845 39e Avenue, LaSalle, QC H8P 2Y6, Canada" }, "geometry": { "type": "Point", "coordinates": [ -73.6141102, 45.4212401 ] } },
{ "type": "Feature", "properties": { "nom": "Des Monarques, Annexe Marie‐Rollet (36e Avenue)", "rang": "175", "adresse": "6405 30 Ave, Montreal, QC H1T 3G3, Canada" }, "geometry": { "type": "Point", "coordinates": [ -73.5745716, 45.567044499999987 ] } },
{ "type": "Feature", "properties": { "nom": "Notre‐Dame‐des‐Sept‐Douleurs", "rang": "176", "adresse": "4155 Rue Wellington, Verdun, QC H4G 1V8, Canada" }, "geometry": { "type": "Point", "coordinates": [ -73.5672858, 45.4625098 ] } },
{ "type": "Feature", "properties": { "nom": "Edward Murphy", "rang": "177", "adresse": "6800 Av. Pierre-De Coubertin, Montréal, QC H1N 1M5, Canada" }, "geometry": { "type": "Point", "coordinates": [ -73.5337898, 45.5821105 ] } },
{ "type": "Feature", "properties": { "nom": "Riverview", "rang": "178", "adresse": "Montreal, QC, Canada" }, "geometry": { "type": "Point", "coordinates": [ -73.5673919, 45.5018869 ] } },
{ "type": "Feature", "properties": { "nom": "Saint‐Justin, Annexe temporaire", "rang": "179", "adresse": "5005 Rue Mousseau, Montréal, QC H1K 2V8, Canada" }, "geometry": { "type": "Point", "coordinates": [ -73.532853, 45.6063236 ] } },
{ "type": "Feature", "properties": { "nom": "Marc‐Favreau", "rang": "180", "adresse": "Montreal, QC, Canada" }, "geometry": { "type": "Point", "coordinates": [ -73.5673919, 45.5018869 ] } },
{ "type": "Feature", "properties": { "nom": "Carlyle", "rang": "181", "adresse": "Montreal, QC, Canada" }, "geometry": { "type": "Point", "coordinates": [ -73.5673919, 45.5018869 ] } },
{ "type": "Feature", "properties": { "nom": "Marc‐Aurèle‐Fortin, Annexe", "rang": "182", "adresse": "12550 Av. Fernand-Gauthier, Montréal, QC H1E 1S8, Canada" }, "geometry": { "type": "Point", "coordinates": [ -73.6050336, 45.6357242 ] } },
{ "type": "Feature", "properties": { "nom": "Des Monarques, Annexe Marie‐Rollet (Beaubien)", "rang": "183", "adresse": "4335 Rue Beaubien E, Montréal, QC H1T 1S8, Canada" }, "geometry": { "type": "Point", "coordinates": [ -73.5781414, 45.5647088 ] } },
{ "type": "Feature", "properties": { "nom": "Boucher‐De La Bruère", "rang": "184", "adresse": "7760 Rue la Fontaine, Montréal, QC H1L 3H2, Canada" }, "geometry": { "type": "Point", "coordinates": [ -73.5133214, 45.5881749 ] } },
{ "type": "Feature", "properties": { "nom": "Chanoine‐Joseph‐Théorêt", "rang": "185", "adresse": "990 5e Avenue, Verdun, QC H4G 2Z6, Canada" }, "geometry": { "type": "Point", "coordinates": [ -73.5771748, 45.456387 ] } },
{ "type": "Feature", "properties": { "nom": "Saint‐Donat", "rang": "186", "adresse": "3155 Rue Desautels, Montréal, QC H1N 3B8, Canada" }, "geometry": { "type": "Point", "coordinates": [ -73.5394891, 45.583720199999988 ] } },
{ "type": "Feature", "properties": { "nom": "Des Cinq‐Continents, Pavillon Saint‐Antonin", "rang": "187", "adresse": "5325 Av. Macdonald, Montréal, QC H3X 2W6, Canada" }, "geometry": { "type": "Point", "coordinates": [ -73.6360707, 45.4823965 ] } },
{ "type": "Feature", "properties": { "nom": "Alphonse‐Desjardins, Annexe temporaire", "rang": "188", "adresse": "6650 39e Avenue, Montréal, QC H1T 2W8, Canada" }, "geometry": { "type": "Point", "coordinates": [ -73.573755, 45.5730075 ] } },
{ "type": "Feature", "properties": { "nom": "Saint‐Justin, Annexe", "rang": "189", "adresse": "5005 Rue Mousseau, Montréal, QC H1K 2V8, Canada" }, "geometry": { "type": "Point", "coordinates": [ -73.532853, 45.6063236 ] } },
{ "type": "Feature", "properties": { "nom": "Atelier", "rang": "190", "adresse": "10055 Rue J J Gagnier, Montréal, QC H2B 2Z7, Canada" }, "geometry": { "type": "Point", "coordinates": [ -73.6412305, 45.5775162 ] } },
{ "type": "Feature", "properties": { "nom": "Sainte‐Jeanne‐d'Arc", "rang": "191", "adresse": "3700 R. Sherbrooke E, Montréal, QC H1X 1Z8, Canada" }, "geometry": { "type": "Point", "coordinates": [ -73.5544284, 45.5491379 ] } },
{ "type": "Feature", "properties": { "nom": "Chénier", "rang": "192", "adresse": "5800 Avenue St Donat, Montréal, QC H1K 3P7, Canada" }, "geometry": { "type": "Point", "coordinates": [ -73.5426374, 45.604576 ] } },
{ "type": "Feature", "properties": { "nom": "Des Monarques, Annexe St‐Jean‐Vianney", "rang": "193", "adresse": "Montreal, QC, Canada" }, "geometry": { "type": "Point", "coordinates": [ -73.5673919, 45.5018869 ] } },
{ "type": "Feature", "properties": { "nom": "Children's World Academy", "rang": "194", "adresse": "2241 Rue Ménard, LaSalle, QC H8N 1J4, Canada" }, "geometry": { "type": "Point", "coordinates": [ -73.6295717, 45.4379974 ] } },
{ "type": "Feature", "properties": { "nom": "Sainte‐Geneviève Ouest", "rang": "195", "adresse": "35 Rue Sainte-Anne, Sainte-Geneviève, QC H9H 2Z2, Canada" }, "geometry": { "type": "Point", "coordinates": [ -73.8719308, 45.4778217 ] } },
{ "type": "Feature", "properties": { "nom": "Du Grand‐Chêne", "rang": "196", "adresse": "5080 Rue de Savoie, Pierrefonds, QC H8Z 1C2, Canada" }, "geometry": { "type": "Point", "coordinates": [ -73.8300509, 45.5106986 ] } },
{ "type": "Feature", "properties": { "nom": "Alphonse‐Desjardins", "rang": "197", "adresse": "6600 Rue Lemay, Montréal, QC H1T 2L7, Canada" }, "geometry": { "type": "Point", "coordinates": [ -73.5701421, 45.5774499 ] } },
{ "type": "Feature", "properties": { "nom": "Au Pied‐de‐la‐Montagne, Pavillon SJB", "rang": "198", "adresse": "4265 Av. Laval, Montréal, QC H2W 2J5, Canada" }, "geometry": { "type": "Point", "coordinates": [ -73.5807439, 45.5210523 ] } },
{ "type": "Feature", "properties": { "nom": "Jardin‐Des‐Saints‐Anges", "rang": "199", "adresse": "1225 Rue Saint-Louis, Lachine, QC H8S 2K6, Canada" }, "geometry": { "type": "Point", "coordinates": [ -73.6750513, 45.4333733 ] } },
{ "type": "Feature", "properties": { "nom": "Notre‐Dame‐de‐Fatima", "rang": "200", "adresse": "12200 Av. René Masson, Montréal, QC H1E 4T4, Canada" }, "geometry": { "type": "Point", "coordinates": [ -73.5746107, 45.6470211 ] } },
{ "type": "Feature", "properties": { "nom": "Nom école", "rang": "Rang", "adresse": "Montreal, QC, Canada" }, "geometry": { "type": "Point", "coordinates": [ -73.5673919, 45.5018869 ] } },
{ "type": "Feature", "properties": { "nom": "Sainte‐Louise‐de‐Marillac, Annexe", "rang": "201", "adresse": "8100 Rue de Marseille, Montréal, QC H1L 1P3, Canada" }, "geometry": { "type": "Point", "coordinates": [ -73.5294105, 45.5967603 ] } },
{ "type": "Feature", "properties": { "nom": "Allion", "rang": "202", "adresse": "Montreal, QC, Canada" }, "geometry": { "type": "Point", "coordinates": [ -73.5673919, 45.5018869 ] } },
{ "type": "Feature", "properties": { "nom": "Montmartre", "rang": "203", "adresse": "1855 59e Avenue, Pointe-aux-Trembles, QC H1A 2P2, Canada" }, "geometry": { "type": "Point", "coordinates": [ -73.4986021, 45.6754494 ] } },
{ "type": "Feature", "properties": { "nom": "Saint‐Justin", "rang": "204", "adresse": "5005 Rue Mousseau, Montréal, QC H1K 2V8, Canada" }, "geometry": { "type": "Point", "coordinates": [ -73.532853, 45.6063236 ] } },
{ "type": "Feature", "properties": { "nom": "FACE", "rang": "205", "adresse": "3449 Rue University, Montréal, QC H3A 2A8, Canada" }, "geometry": { "type": "Point", "coordinates": [ -73.5748935, 45.5061048 ] } },
{ "type": "Feature", "properties": { "nom": "Notre‐Dame", "rang": "206", "adresse": "14425 Rue Notre Dame E, Pointe-aux-Trembles, QC H1A 1V6, Canada" }, "geometry": { "type": "Point", "coordinates": [ -73.493781, 45.6734617 ] } },
{ "type": "Feature", "properties": { "nom": "Saint‐Marcel", "rang": "207", "adresse": "1470 16e Avenue, Pointe-aux-Trembles, QC H1B 3N6, Canada" }, "geometry": { "type": "Point", "coordinates": [ -73.5038669, 45.6453437 ] } },
{ "type": "Feature", "properties": { "nom": "Saint‐Isaac‐Jogues", "rang": "208", "adresse": "9355 Av. de Galinée, Montréal, QC H2M 2A7, Canada" }, "geometry": { "type": "Point", "coordinates": [ -73.6429962, 45.5594903 ] } },
{ "type": "Feature", "properties": { "nom": "Sainte‐Claire", "rang": "209", "adresse": "8500 Rue Sainte-Claire, Montréal, QC H1L 1X7, Canada" }, "geometry": { "type": "Point", "coordinates": [ -73.5250622, 45.6001824 ] } },
{ "type": "Feature", "properties": { "nom": "Beau‐Séjour, Édifice Sud", "rang": "210", "adresse": "3600 Rue Beauséjour, Saint-Laurent, QC H4K 1W7, Canada" }, "geometry": { "type": "Point", "coordinates": [ -73.7314431, 45.522743899999988 ] } },
{ "type": "Feature", "properties": { "nom": "Saint‐Albert‐le‐Grand", "rang": "211", "adresse": "5050 18E Ave, Montreal, QC H1X 2N9, Canada" }, "geometry": { "type": "Point", "coordinates": [ -73.5656262, 45.5542334 ] } },
{ "type": "Feature", "properties": { "nom": "De l’Orée‐du‐Parc", "rang": "212", "adresse": "7500 Rue Jean-Chevalier, LaSalle, QC H8N 2J4, Canada" }, "geometry": { "type": "Point", "coordinates": [ -73.6117274, 45.4377053 ] } },
{ "type": "Feature", "properties": { "nom": "Honoré‐Mercier", "rang": "213", "adresse": "Rue Honoré Mercier, Montréal, QC, Canada" }, "geometry": { "type": "Point", "coordinates": [ -73.6033736, 45.5969097 ] } },
{ "type": "Feature", "properties": { "nom": "Des Saules‐Rieurs", "rang": "214", "adresse": "1050 5e Avenue, Verdun, QC H4G 2Z6, Canada" }, "geometry": { "type": "Point", "coordinates": [ -73.5781093, 45.4563415 ] } },
{ "type": "Feature", "properties": { "nom": "Notre‐Dame‐du‐Foyer", "rang": "215", "adresse": "5955 41e Avenue, Montréal, QC H1T 2T7, Canada" }, "geometry": { "type": "Point", "coordinates": [ -73.5646787, 45.5722144 ] } },
{ "type": "Feature", "properties": { "nom": "Beau‐Séjour, Édifice Nord", "rang": "216", "adresse": "3600 Rue Beauséjour, Saint-Laurent, QC H4K 1W7, Canada" }, "geometry": { "type": "Point", "coordinates": [ -73.7314431, 45.522743899999988 ] } },
{ "type": "Feature", "properties": { "nom": "Saint‐Léon‐de‐Westmount", "rang": "217", "adresse": "360 Av. Clarke, Westmount, QC H3Z 2E6, Canada" }, "geometry": { "type": "Point", "coordinates": [ -73.5930865, 45.4860096 ] } },
{ "type": "Feature", "properties": { "nom": "Saint‐Barthélemy, Pavillon Sagard", "rang": "218", "adresse": "7400 Rue Sagard, Montréal, QC H2E 2S9, Canada" }, "geometry": { "type": "Point", "coordinates": [ -73.6075706, 45.5526044 ] } },
{ "type": "Feature", "properties": { "nom": "La Vérendrye", "rang": "219", "adresse": "3055 Rue Mousseau, Montréal, QC H1L 4W1, Canada" }, "geometry": { "type": "Point", "coordinates": [ -73.5263132, 45.6044987 ] } },
{ "type": "Feature", "properties": { "nom": "Marie‐Favery", "rang": "220", "adresse": "7750 Av. Christophe Colomb, Montréal, QC H2R 2S9, Canada" }, "geometry": { "type": "Point", "coordinates": [ -73.6205618, 45.5460207 ] } },
{ "type": "Feature", "properties": { "nom": "Félix‐Leclerc", "rang": "221", "adresse": "1750 Bd du Tricentenaire, Montréal, QC H1B 3B1, Canada" }, "geometry": { "type": "Point", "coordinates": [ -73.5041619, 45.651296 ] } },
{ "type": "Feature", "properties": { "nom": "Springdale", "rang": "222", "adresse": "Montreal, QC, Canada" }, "geometry": { "type": "Point", "coordinates": [ -73.5673919, 45.5018869 ] } },
{ "type": "Feature", "properties": { "nom": "Hampstead", "rang": "223", "adresse": "Hampstead, QC H3X, Canada" }, "geometry": { "type": "Point", "coordinates": [ -73.6484239, 45.4813759 ] } },
{ "type": "Feature", "properties": { "nom": "Sans‐Frontières", "rang": "224", "adresse": "5937 10e Avenue, Montréal, QC H1Y 2K4, Canada" }, "geometry": { "type": "Point", "coordinates": [ -73.582325, 45.5524141 ] } },
{ "type": "Feature", "properties": { "nom": "Fernand‐Seguin, Pavillon Hubert‐Reeves", "rang": "225", "adresse": "10050 Av. Durham, Montréal, QC H2C 2G4, Canada" }, "geometry": { "type": "Point", "coordinates": [ -73.6570883, 45.5541843 ] } },
{ "type": "Feature", "properties": { "nom": "Jonathan", "rang": "226", "adresse": "705 Bd Décarie, Saint-Laurent, QC H4L 3L3, Canada" }, "geometry": { "type": "Point", "coordinates": [ -73.6769345, 45.5110407 ] } },
{ "type": "Feature", "properties": { "nom": "Coeur‐Immaculé‐de‐Marie", "rang": "227", "adresse": "1845 Bd Desmarchais, Montréal, QC H4E 2B7, Canada" }, "geometry": { "type": "Point", "coordinates": [ -73.5896634, 45.4558442 ] } },
{ "type": "Feature", "properties": { "nom": "Des Amis‐du‐Monde", "rang": "228", "adresse": "8205 Chem. Mackle, Côte Saint-Luc, QC H4W 1B1, Canada" }, "geometry": { "type": "Point", "coordinates": [ -73.6781438, 45.459275700000013 ] } },
{ "type": "Feature", "properties": { "nom": "F.A.C.E.", "rang": "229", "adresse": "3449 Rue University, Montréal, QC H3A 2A8, Canada" }, "geometry": { "type": "Point", "coordinates": [ -73.5748935, 45.5061048 ] } },
{ "type": "Feature", "properties": { "nom": "Lajoie", "rang": "230", "adresse": "1276 Av. Lajoie, Outremont, QC H2V 1P3, Canada" }, "geometry": { "type": "Point", "coordinates": [ -73.6106871, 45.5202412 ] } },
{ "type": "Feature", "properties": { "nom": "Maîtrise Petits Chanteurs du Mont‐Royal", "rang": "231", "adresse": "4300 Chem. Queen Mary, Montréal, QC H3V 1A6, Canada" }, "geometry": { "type": "Point", "coordinates": [ -73.620647, 45.4913903 ] } },
{ "type": "Feature", "properties": { "nom": "Rose‐des‐Vents", "rang": "232", "adresse": "3000 Rue Beaubien E, Montréal, QC H1Y 1H2, Canada" }, "geometry": { "type": "Point", "coordinates": [ -73.5881761, 45.5525224 ] } },
{ "type": "Feature", "properties": { "nom": "Internationale de Montréal", "rang": "233", "adresse": "3641 Av. Prud'homme, Montréal, QC H4A 3H6, Canada" }, "geometry": { "type": "Point", "coordinates": [ -73.613371, 45.4754941 ] } },
{ "type": "Feature", "properties": { "nom": "Lajoie, Sainte‐Mary‐Magdalen", "rang": "234", "adresse": "1276 Av. Lajoie, Outremont, QC H2V 1P3, Canada" }, "geometry": { "type": "Point", "coordinates": [ -73.6106871, 45.5202412 ] } },
{ "type": "Feature", "properties": { "nom": "Saint‐Barthélemy, Pavillon des Érables", "rang": "235", "adresse": "7081 Av. des Érables, Montréal, QC H2E 2R1, Canada" }, "geometry": { "type": "Point", "coordinates": [ -73.6031143, 45.550344300000013 ] } },
{ "type": "Feature", "properties": { "nom": "Sainte‐Louise‐de‐Marillac", "rang": "236", "adresse": "8100 Rue de Marseille, Montréal, QC H1L 1P3, Canada" }, "geometry": { "type": "Point", "coordinates": [ -73.5294105, 45.5967603 ] } },
{ "type": "Feature", "properties": { "nom": "Sunshine Academy", "rang": "237", "adresse": "65 Rue Sunshine, Dollard-des-Ormeaux, QC H9B 1G9, Canada" }, "geometry": { "type": "Point", "coordinates": [ -73.7992212, 45.4962578 ] } },
{ "type": "Feature", "properties": { "nom": "Christ‐Roi", "rang": "238", "adresse": "525 Rue de Louvain East, Montréal, QC H2M 1A1, Canada" }, "geometry": { "type": "Point", "coordinates": [ -73.651611, 45.5501278 ] } },
{ "type": "Feature", "properties": { "nom": "Pierre Elliott Trudeau", "rang": "239", "adresse": "Montreal, QC, Canada" }, "geometry": { "type": "Point", "coordinates": [ -73.5673919, 45.5018869 ] } },
{ "type": "Feature", "properties": { "nom": "Saint‐Jean‐de‐la‐Lande", "rang": "240", "adresse": "3120 Avenue Laurier E, Montréal, QC H1Y 1Z6, Canada" }, "geometry": { "type": "Point", "coordinates": [ -73.570504, 45.5482434 ] } },
{ "type": "Feature", "properties": { "nom": "Saint‐Donat, Annexe", "rang": "241", "adresse": "3155 Rue Desautels, Montréal, QC H1N 3B8, Canada" }, "geometry": { "type": "Point", "coordinates": [ -73.5394891, 45.583720199999988 ] } },
{ "type": "Feature", "properties": { "nom": "Saint‐Paul‐de‐la‐Croix", "rang": "242", "adresse": "10495 Av. Georges-Baril, Montréal, QC H2C 2N1, Canada" }, "geometry": { "type": "Point", "coordinates": [ -73.6613076, 45.5593504 ] } },
{ "type": "Feature", "properties": { "nom": "Saint‐Jean‐de‐la‐Lande, Annexe", "rang": "243", "adresse": "3120 Avenue Laurier E, Montréal, QC H1Y 1Z6, Canada" }, "geometry": { "type": "Point", "coordinates": [ -73.570504, 45.5482434 ] } },
{ "type": "Feature", "properties": { "nom": "Élan", "rang": "244", "adresse": "3450 Av. De Lorimier, Montréal, QC H2K 3X6, Canada" }, "geometry": { "type": "Point", "coordinates": [ -73.5640909, 45.5309915 ] } },
{ "type": "Feature", "properties": { "nom": "Saint‐Enfant‐Jésus", "rang": "245", "adresse": "75 Rue Villeneuve E, Montréal, QC H2T 1L1, Canada" }, "geometry": { "type": "Point", "coordinates": [ -73.5890556, 45.5224468 ] } },
{ "type": "Feature", "properties": { "nom": "Louis‐Colin", "rang": "246", "adresse": "10122 Bd Olympia, Montréal, QC H2C 2V9, Canada" }, "geometry": { "type": "Point", "coordinates": [ -73.6544557, 45.5609572 ] } },
{ "type": "Feature", "properties": { "nom": "Dunrae Gardens", "rang": "247", "adresse": "235 Av. Dunrae, Mont-Royal, QC H3P 1T5, Canada" }, "geometry": { "type": "Point", "coordinates": [ -73.6375661, 45.5214326 ] } },
{ "type": "Feature", "properties": { "nom": "Île‐des‐Soeurs", "rang": "248", "adresse": "530 Rue de Gaspé, Verdun, QC H3E 1E7, Canada" }, "geometry": { "type": "Point", "coordinates": [ -73.5492773, 45.456966 ] } },
{ "type": "Feature", "properties": { "nom": "Ahuntsic, Pavillon Julie‐Payette", "rang": "249", "adresse": "10085 Av. Durham, Montréal, QC H2C 2G3, Canada" }, "geometry": { "type": "Point", "coordinates": [ -73.6572297, 45.554772 ] } },
{ "type": "Feature", "properties": { "nom": "Saint‐Jean‐de‐Brébeuf", "rang": "250", "adresse": "2870 Rue Dandurand, Montréal, QC H1Y 1T5, Canada" }, "geometry": { "type": "Point", "coordinates": [ -73.5777917, 45.548699199999987 ] } },
{ "type": "Feature", "properties": { "nom": "Nom école", "rang": "Rang", "adresse": "Montreal, QC, Canada" }, "geometry": { "type": "Point", "coordinates": [ -73.5673919, 45.5018869 ] } },
{ "type": "Feature", "properties": { "nom": "La Petite‐Patrie, Pavillon NDD", "rang": "251", "adresse": "La Petite-Patrie, Montreal, QC, Canada" }, "geometry": { "type": "Point", "coordinates": [ -73.6015255, 45.5378032 ] } },
{ "type": "Feature", "properties": { "nom": "Saint‐Étienne", "rang": "252", "adresse": "5959 Av. Christophe Colomb, Montréal, QC H2S 2G3, Canada" }, "geometry": { "type": "Point", "coordinates": [ -73.5965393, 45.5359433 ] } },
{ "type": "Feature", "properties": { "nom": "Roslyn", "rang": "253", "adresse": "Montreal, QC, Canada" }, "geometry": { "type": "Point", "coordinates": [ -73.5673919, 45.5018869 ] } },
{ "type": "Feature", "properties": { "nom": "Ahuntsic, Pavillon Hubert‐Reeves", "rang": "254", "adresse": "9900 Av. d'Auteuil, Montréal, QC H3L 2K1, Canada" }, "geometry": { "type": "Point", "coordinates": [ -73.6586916, 45.5494958 ] } },
{ "type": "Feature", "properties": { "nom": "Sainte‐Geneviève Sud", "rang": "255", "adresse": "7520 Rue Édouard, LaSalle, QC H8P 1S2, Canada" }, "geometry": { "type": "Point", "coordinates": [ -73.5928898, 45.4343112 ] } },
{ "type": "Feature", "properties": { "nom": "Dollard‐Des Ormeaux", "rang": "256", "adresse": "35 Av. Anselme-Lavigne, Dollard-des-Ormeaux, QC H9A 1N5, Canada" }, "geometry": { "type": "Point", "coordinates": [ -73.8200289, 45.5005537 ] } },
{ "type": "Feature", "properties": { "nom": "Albatros", "rang": "257", "adresse": "6440 Bd des Galeries d'Anjou, Anjou, QC H1M 1W2, Canada" }, "geometry": { "type": "Point", "coordinates": [ -73.553979, 45.5940853 ] } },
{ "type": "Feature", "properties": { "nom": "Lambert‐Closse", "rang": "258", "adresse": "5840 Rue Saint-Urbain, Montréal, QC H2T 2X5, Canada" }, "geometry": { "type": "Point", "coordinates": [ -73.6038102, 45.5262557 ] } },
{ "type": "Feature", "properties": { "nom": "Saint‐Gérard", "rang": "259", "adresse": "505 Rue de Liège E, Montréal, QC H2P 1J9, Canada" }, "geometry": { "type": "Point", "coordinates": [ -73.6352167, 45.5452778 ] } },
{ "type": "Feature", "properties": { "nom": "Ahuntsic, Annexe", "rang": "260", "adresse": "9900 Av. d'Auteuil, Montréal, QC H3L 2K1, Canada" }, "geometry": { "type": "Point", "coordinates": [ -73.6586916, 45.5494958 ] } },
{ "type": "Feature", "properties": { "nom": "Simone‐Desjardins, Pavillon Gouin", "rang": "261", "adresse": "10004 Boul. Gouin E, Montréal, QC H1C 1A8, Canada" }, "geometry": { "type": "Point", "coordinates": [ -73.5618782, 45.6606671 ] } },
{ "type": "Feature", "properties": { "nom": "Des Marguerite, Édifice de la Grande‐Marguerite", "rang": "262", "adresse": "100 Bd de l'Île-des-Soeurs, Montréal, QC H3E 0C7, Canada" }, "geometry": { "type": "Point", "coordinates": [ -73.5443508, 45.4653953 ] } },
{ "type": "Feature", "properties": { "nom": "Leonardo‐da‐Vinci Academy", "rang": "263", "adresse": "12025 Av. André-Dumas, Montréal, QC H1E 4G2, Canada" }, "geometry": { "type": "Point", "coordinates": [ -73.5839161, 45.6375659 ] } },
{ "type": "Feature", "properties": { "nom": "Bancroft", "rang": "264", "adresse": "4563 Rue Saint-Urbain, Montréal, QC H2T 2V9, Canada" }, "geometry": { "type": "Point", "coordinates": [ -73.5883072, 45.5194933 ] } },
{ "type": "Feature", "properties": { "nom": "Kingsdale Academy", "rang": "265", "adresse": "4381 Rue King, Pierrefonds, QC H9H 2E6, Canada" }, "geometry": { "type": "Point", "coordinates": [ -73.8532234, 45.4799967 ] } },
{ "type": "Feature", "properties": { "nom": "Notre‐Dame‐de‐la‐Garde", "rang": "266", "adresse": "755 Rue Brault, Verdun, QC H4H 2B3, Canada" }, "geometry": { "type": "Point", "coordinates": [ -73.575439, 45.4482467 ] } },
{ "type": "Feature", "properties": { "nom": "Michelangelo International", "rang": "267", "adresse": "9360 5e Rue, Montréal, QC H1E 1K1, Canada" }, "geometry": { "type": "Point", "coordinates": [ -73.568433, 45.6505494 ] } },
{ "type": "Feature", "properties": { "nom": "Saint‐Louis‐de‐Gonzague, Annexe", "rang": "268", "adresse": "2430 Terr. Mercure, Montréal, QC H2H 1P2, Canada" }, "geometry": { "type": "Point", "coordinates": [ -73.5648333, 45.5361784 ] } },
{ "type": "Feature", "properties": { "nom": "Madeleine‐de‐Verchères", "rang": "269", "adresse": "6017 R. Cartier, Montréal, QC H2G 2V4, Canada" }, "geometry": { "type": "Point", "coordinates": [ -73.59217, 45.5418652 ] } },
{ "type": "Feature", "properties": { "nom": "Saint‐Louis‐de‐Gonzague", "rang": "270", "adresse": "2430 Terr. Mercure, Montréal, QC H2H 1P2, Canada" }, "geometry": { "type": "Point", "coordinates": [ -73.5648333, 45.5361784 ] } },
{ "type": "Feature", "properties": { "nom": "Le Vitrail", "rang": "271", "adresse": "5927 Rue Boyer, Montréal, QC H2S 2H8, Canada" }, "geometry": { "type": "Point", "coordinates": [ -73.597114300000015, 45.5349419 ] } },
{ "type": "Feature", "properties": { "nom": "De la Belle‐Rive, Pavillon des Trembles", "rang": "272", "adresse": "16360 Rue Bureau, Rivière-des-Prairies - Pointe-aux-Trembles, QC H1A 1Z5, Canada" }, "geometry": { "type": "Point", "coordinates": [ -73.4797142, 45.700748 ] } },
{ "type": "Feature", "properties": { "nom": "De l'Odyssée", "rang": "273", "adresse": "4348 Rue Alain, Pierrefonds - Roxboro, QC H9H 2T7, Canada" }, "geometry": { "type": "Point", "coordinates": [ -73.8608714, 45.474789 ] } },
{ "type": "Feature", "properties": { "nom": "Lalande", "rang": "274", "adresse": "50 Av. 3e S, Roxboro, QC H8Y 2L5, Canada" }, "geometry": { "type": "Point", "coordinates": [ -73.8030281, 45.508624 ] } },
{ "type": "Feature", "properties": { "nom": "Notre‐Dame‐de‐la‐Garde, Édifice Richard", "rang": "275", "adresse": "755 Rue Brault, Verdun, QC H4H 2B3, Canada" }, "geometry": { "type": "Point", "coordinates": [ -73.575439, 45.4482467 ] } },
{ "type": "Feature", "properties": { "nom": "De la Belle‐Rive, Pavillon de la Pointe", "rang": "276", "adresse": "16360 Rue Bureau, Rivière-des-Prairies - Pointe-aux-Trembles, QC H1A 1Z5, Canada" }, "geometry": { "type": "Point", "coordinates": [ -73.4797142, 45.700748 ] } },
{ "type": "Feature", "properties": { "nom": "Saint‐Luc", "rang": "277", "adresse": "98 Rue Fredmir, Dollard-des-Ormeaux, QC H9A 2R3, Canada" }, "geometry": { "type": "Point", "coordinates": [ -73.8300466, 45.4913692 ] } },
{ "type": "Feature", "properties": { "nom": "Saint Charles", "rang": "278", "adresse": "Montreal, QC, Canada" }, "geometry": { "type": "Point", "coordinates": [ -73.5673919, 45.5018869 ] } },
{ "type": "Feature", "properties": { "nom": "Nouvelle‐Querbes", "rang": "279", "adresse": "215 Av. Bloomfield, Outremont, QC H2V 3R6, Canada" }, "geometry": { "type": "Point", "coordinates": [ -73.6008384, 45.5175781 ] } },
{ "type": "Feature", "properties": { "nom": "Sainte‐Cécile", "rang": "280", "adresse": "7230 Av. de Gaspé, Montréal, QC H2R 1Z6, Canada" }, "geometry": { "type": "Point", "coordinates": [ -73.6178994, 45.5368066 ] } },
{ "type": "Feature", "properties": { "nom": "Willingdon", "rang": "281", "adresse": "5870 Rue de Terrebonne, Montréal, QC H4A 1B5, Canada" }, "geometry": { "type": "Point", "coordinates": [ -73.6286865, 45.4736333 ] } },
{ "type": "Feature", "properties": { "nom": "Simone‐Desjardins, Pavillon Perras", "rang": "282", "adresse": "9955 Bd Perras, Montréal, QC H1C 1V8, Canada" }, "geometry": { "type": "Point", "coordinates": [ -73.563006, 45.659814 ] } },
{ "type": "Feature", "properties": { "nom": "Enfants‐du‐Monde", "rang": "283", "adresse": "2915 Rue Marcel, Saint-Laurent, QC H4R 1B2, Canada" }, "geometry": { "type": "Point", "coordinates": [ -73.7253883, 45.5150863 ] } },
{ "type": "Feature", "properties": { "nom": "Royal Vale", "rang": "284", "adresse": "5851 Av. Somerled, Montréal, QC H3X 2A5, Canada" }, "geometry": { "type": "Point", "coordinates": [ -73.63255, 45.475216 ] } },
{ "type": "Feature", "properties": { "nom": "Sainte‐Bibiane", "rang": "285", "adresse": "5755 13e Ave., Montréal, QC H1X 2Y3, Canada" }, "geometry": { "type": "Point", "coordinates": [ -73.5776757, 45.5539305 ] } },
{ "type": "Feature", "properties": { "nom": "Saint‐Gérard", "rang": "286", "adresse": "505 Rue de Liège E, Montréal, QC H2P 1J9, Canada" }, "geometry": { "type": "Point", "coordinates": [ -73.6352167, 45.5452778 ] } },
{ "type": "Feature", "properties": { "nom": "Saint‐Fabien, Annexe Rosalie‐Jetté", "rang": "287", "adresse": "6500 Av. de Renty, Montréal, QC H1M 1M4, Canada" }, "geometry": { "type": "Point", "coordinates": [ -73.5500937, 45.5836525 ] } },
{ "type": "Feature", "properties": { "nom": "Notre‐Dame‐de‐Grâce", "rang": "288", "adresse": "Notre-Dame-de-Grâce, Montreal, QC, Canada" }, "geometry": { "type": "Point", "coordinates": [ -73.6396329, 45.4660994 ] } },
{ "type": "Feature", "properties": { "nom": "Guy‐Drummond", "rang": "289", "adresse": "1475 Av. Lajoie, Outremont, QC H2V 1P9, Canada" }, "geometry": { "type": "Point", "coordinates": [ -73.6135885, 45.518462799999988 ] } },
{ "type": "Feature", "properties": { "nom": "Saint‐Arsène", "rang": "290", "adresse": "6972 Av. Christophe Colomb, Montréal, QC H2S 2H5, Canada" }, "geometry": { "type": "Point", "coordinates": [ -73.6101407, 45.5413635 ] } },
{ "type": "Feature", "properties": { "nom": "Des Marguerite", "rang": "291", "adresse": "100 Bd de l'Île-des-Soeurs, Montréal, QC H3E 0C7, Canada" }, "geometry": { "type": "Point", "coordinates": [ -73.5443508, 45.4653953 ] } },
{ "type": "Feature", "properties": { "nom": "Saint‐Fabien", "rang": "292", "adresse": "6500 Av. de Renty, Montréal, QC H1M 1M4, Canada" }, "geometry": { "type": "Point", "coordinates": [ -73.5500937, 45.5836525 ] } },
{ "type": "Feature", "properties": { "nom": "Saint‐Ambroise, Annexe", "rang": "293", "adresse": "6555 Rue de Normanville, Montréal, QC H2G 3B9, Canada" }, "geometry": { "type": "Point", "coordinates": [ -73.6012396, 45.5402478 ] } },
{ "type": "Feature", "properties": { "nom": "East Hill", "rang": "294", "adresse": "10350 Bd Perras, Montréal, QC H1C 2H1, Canada" }, "geometry": { "type": "Point", "coordinates": [ -73.553951, 45.663837 ] } },
{ "type": "Feature", "properties": { "nom": "Murielle‐Dumont", "rang": "295", "adresse": "5005 Rue Valois, Pierrefonds - Roxboro, QC H8Z 2G8, Canada" }, "geometry": { "type": "Point", "coordinates": [ -73.8345234, 45.5065165 ] } },
{ "type": "Feature", "properties": { "nom": "Notre‐Dame‐de‐Grâce, Annexe", "rang": "296", "adresse": "Notre-Dame-de-Grâce, Montreal, QC, Canada" }, "geometry": { "type": "Point", "coordinates": [ -73.6396329, 45.4660994 ] } },
{ "type": "Feature", "properties": { "nom": "Au Pied‐de‐la‐Montagne, Pavillon JJO", "rang": "297", "adresse": "4265 Av. Laval, Montréal, QC H2W 2J5, Canada" }, "geometry": { "type": "Point", "coordinates": [ -73.5807439, 45.5210523 ] } },
{ "type": "Feature", "properties": { "nom": "Saint‐Ambroise", "rang": "298", "adresse": "6555 Rue de Normanville, Montréal, QC H2G 3B9, Canada" }, "geometry": { "type": "Point", "coordinates": [ -73.6012396, 45.5402478 ] } },
{ "type": "Feature", "properties": { "nom": "Saint‐Clément‐Ouest", "rang": "299", "adresse": "555 Av. Mitchell, Mont-Royal, QC H3R 1L5, Canada" }, "geometry": { "type": "Point", "coordinates": [ -73.655817, 45.5083667 ] } },
{ "type": "Feature", "properties": { "nom": "Merton", "rang": "300", "adresse": "Montreal, QC, Canada" }, "geometry": { "type": "Point", "coordinates": [ -73.5673919, 45.5018869 ] } },
{ "type": "Feature", "properties": { "nom": "Nom école", "rang": "Rang", "adresse": "Montreal, QC, Canada" }, "geometry": { "type": "Point", "coordinates": [ -73.5673919, 45.5018869 ] } },
{ "type": "Feature", "properties": { "nom": "Edinburgh", "rang": "301", "adresse": "500 Av. Hudson, Montréal-Ouest, QC H4X 1X1" }, "geometry": { "type": "Point", "coordinates": [ -73.659817161303764, 45.457453906835802 ] } },
{ "type": "Feature", "properties": { "nom": "Arc‐en‐Ciel", "rang": "302", "adresse": "4265 Av. Laval, Montréal, QC H2W 1E4, Canada" }, "geometry": { "type": "Point", "coordinates": [ -73.5807438, 45.5210523 ] } },
{ "type": "Feature", "properties": { "nom": "Saint‐Pierre‐Claver", "rang": "303", "adresse": "2110 Bd Saint-Joseph E, Montréal, QC H2H 1E7, Canada" }, "geometry": { "type": "Point", "coordinates": [ -73.57675, 45.5376261 ] } },
{ "type": "Feature", "properties": { "nom": "Gardenview", "rang": "304", "adresse": "Montreal, QC, Canada" }, "geometry": { "type": "Point", "coordinates": [ -73.5673919, 45.5018869 ] } },
{ "type": "Feature", "properties": { "nom": "Étoile‐Filante", "rang": "305", "adresse": "Montreal, QC, Canada" }, "geometry": { "type": "Point", "coordinates": [ -73.5673919, 45.5018869 ] } },
{ "type": "Feature", "properties": { "nom": "Gentilly, Édifice Fénelon", "rang": "306", "adresse": "355 Bd Fénelon, Dorval, QC H9S 1M2, Canada" }, "geometry": { "type": "Point", "coordinates": [ -73.7492779, 45.444876 ] } },
{ "type": "Feature", "properties": { "nom": "Académie Saint‐Clément", "rang": "307", "adresse": "1345 Chem. Regent, Mont-Royal, QC H3P 2K8, Canada" }, "geometry": { "type": "Point", "coordinates": [ -73.6428, 45.5178736 ] } },
{ "type": "Feature", "properties": { "nom": "Gentilly, Édifice de la Présentation", "rang": "308", "adresse": "244 Av. de la Présentation, Dorval, QC H9S 1R1, Canada" }, "geometry": { "type": "Point", "coordinates": [ -73.7366612, 45.4418997 ] } },
{ "type": "Feature", "properties": { "nom": "Terry Fox", "rang": "309", "adresse": "13350 Rue Purcell, Pierrefonds, QC H8Z 1P7, Canada" }, "geometry": { "type": "Point", "coordinates": [ -73.8460696, 45.5026441 ] } },
{ "type": "Feature", "properties": { "nom": "La Mennais", "rang": "310", "adresse": "6521 R. Saint-Denis, Montréal, QC H2S 2S1, Canada" }, "geometry": { "type": "Point", "coordinates": [ -73.6057824, 45.5347008 ] } },
{ "type": "Feature", "properties": { "nom": "Pierre‐Elliott‐Trudeau", "rang": "311", "adresse": "Montreal, QC, Canada" }, "geometry": { "type": "Point", "coordinates": [ -73.5673919, 45.5018869 ] } },
{ "type": "Feature", "properties": { "nom": "Soulanges", "rang": "312", "adresse": "Montreal, QC, Canada" }, "geometry": { "type": "Point", "coordinates": [ -73.5673919, 45.5018869 ] } },
{ "type": "Feature", "properties": { "nom": "Saint Anthony", "rang": "313", "adresse": "Montreal, QC, Canada" }, "geometry": { "type": "Point", "coordinates": [ -73.5673919, 45.5018869 ] } },
{ "type": "Feature", "properties": { "nom": "Saint‐Clément‐Est", "rang": "314", "adresse": "1560 Boul Laird, Mont-Royal, QC H3P 2T5, Canada" }, "geometry": { "type": "Point", "coordinates": [ -73.6448014, 45.5194977 ] } },
{ "type": "Feature", "properties": { "nom": "Saint‐Émile", "rang": "315", "adresse": "3450 Rue Davidson, Montréal, QC H1W 2Z5, Canada" }, "geometry": { "type": "Point", "coordinates": [ -73.5573933, 45.5459805 ] } },
{ "type": "Feature", "properties": { "nom": "Saint‐Louis", "rang": "316", "adresse": "151 Av. Winthrop, Pointe-Claire, QC H9R 3W8, Canada" }, "geometry": { "type": "Point", "coordinates": [ -73.808319, 45.464398 ] } },
{ "type": "Feature", "properties": { "nom": "Saint‐André‐Apôtre, Annexe", "rang": "317", "adresse": "215 Rue Prieur O, Montréal, QC H3L 1R7, Canada" }, "geometry": { "type": "Point", "coordinates": [ -73.6703267, 45.546506099999988 ] } },
{ "type": "Feature", "properties": { "nom": "Saint Patrick", "rang": "318", "adresse": "Montreal, QC, Canada" }, "geometry": { "type": "Point", "coordinates": [ -73.5673919, 45.5018869 ] } },
{ "type": "Feature", "properties": { "nom": "Saint‐André‐Apôtre", "rang": "319", "adresse": "215 Rue Prieur O, Montréal, QC H3L 1R7, Canada" }, "geometry": { "type": "Point", "coordinates": [ -73.6703267, 45.546506099999988 ] } },
{ "type": "Feature", "properties": { "nom": "Dorval", "rang": "320", "adresse": "355 Bd Fénelon, Dorval, QC H9S 1M2, Canada" }, "geometry": { "type": "Point", "coordinates": [ -73.7492779, 45.444876 ] } },
{ "type": "Feature", "properties": { "nom": "Beechwood", "rang": "321", "adresse": "Montreal, QC, Canada" }, "geometry": { "type": "Point", "coordinates": [ -73.5673919, 45.5018869 ] } },
{ "type": "Feature", "properties": { "nom": "Saint‐Marc", "rang": "322", "adresse": "6365 Av. 1re, Montréal, QC H1Y 3A9, Canada" }, "geometry": { "type": "Point", "coordinates": [ -73.5887592, 45.5498038 ] } },
{ "type": "Feature", "properties": { "nom": "Louis‐Hippolyte‐Lafontaine", "rang": "323", "adresse": "4245 Rue Berri, Montréal, QC H2J 2P9, Canada" }, "geometry": { "type": "Point", "coordinates": [ -73.5779986, 45.5234029 ] } },
{ "type": "Feature", "properties": { "nom": "Hélène‐Boullé", "rang": "324", "adresse": "8050 Av. de Gaspé, Montréal, QC H2R 2A7, Canada" }, "geometry": { "type": "Point", "coordinates": [ -73.6294595, 45.5402596 ] } },
{ "type": "Feature", "properties": { "nom": "Saint‐Germain‐d'Outremont", "rang": "325", "adresse": "46 Av. Vincent-D'Indy, Outremont, QC H2V 2S9, Canada" }, "geometry": { "type": "Point", "coordinates": [ -73.6132674, 45.5109678 ] } },
{ "type": "Feature", "properties": { "nom": "Dorset", "rang": "326", "adresse": "Montreal, QC, Canada" }, "geometry": { "type": "Point", "coordinates": [ -73.5673919, 45.5018869 ] } },
{ "type": "Feature", "properties": { "nom": "Victor‐Thérien", "rang": "327", "adresse": "305 43e Avenue, Lachine, QC H8T 1V2, Canada" }, "geometry": { "type": "Point", "coordinates": [ -73.7034742, 45.4376375 ] } },
{ "type": "Feature", "properties": { "nom": "Pointe‐Claire", "rang": "328", "adresse": "93 Av. Douglas-Shand, Pointe-Claire, QC H9R 2A7, Canada" }, "geometry": { "type": "Point", "coordinates": [ -73.8145394, 45.4512914 ] } },
{ "type": "Feature", "properties": { "nom": "Wilder Penfield", "rang": "329", "adresse": "Rue Wilder-Penfield, Kirkland, QC H9J, Canada" }, "geometry": { "type": "Point", "coordinates": [ -73.87975, 45.4466152 ] } },
{ "type": "Feature", "properties": { "nom": "Joseph‐Henrico", "rang": "330", "adresse": "20 Rue Maughan, Baie-d'Urfé, QC H9X 3C9, Canada" }, "geometry": { "type": "Point", "coordinates": [ -73.9085293, 45.4140103 ] } },
{ "type": "Feature", "properties": { "nom": "Christmas Park", "rang": "331", "adresse": "Montreal, QC, Canada" }, "geometry": { "type": "Point", "coordinates": [ -73.5673919, 45.5018869 ] } },
{ "type": "Feature", "properties": { "nom": "Clearpoint", "rang": "332", "adresse": "17 Av. Cedar, Pointe-Claire, QC H9S 4X9, Canada" }, "geometry": { "type": "Point", "coordinates": [ -73.815177, 45.4354552 ] } },
{ "type": "Feature", "properties": { "nom": "Birchwood", "rang": "333", "adresse": "Montreal, QC, Canada" }, "geometry": { "type": "Point", "coordinates": [ -73.5673919, 45.5018869 ] } },
{ "type": "Feature", "properties": { "nom": "Evergreen", "rang": "334", "adresse": "Montreal, QC, Canada" }, "geometry": { "type": "Point", "coordinates": [ -73.5673919, 45.5018869 ] } },
{ "type": "Feature", "properties": { "nom": "Saint John Fisher Junior", "rang": "335", "adresse": "121 Av. Summerhill, Pointe-Claire, QC H9R 2L8, Canada" }, "geometry": { "type": "Point", "coordinates": [ -73.7952894, 45.4563192 ] } },
{ "type": "Feature", "properties": { "nom": "Laurier", "rang": "336", "adresse": "505 Avenue Laurier E, Montréal, QC H2J 1E9, Canada" }, "geometry": { "type": "Point", "coordinates": [ -73.588587, 45.5285749 ] } },
{ "type": "Feature", "properties": { "nom": "Jacques‐Bizard", "rang": "337", "adresse": "515 Mnt de l'Église, L'Île-Bizard, QC H9C 1H1, Canada" }, "geometry": { "type": "Point", "coordinates": [ -73.8810882, 45.4889023 ] } },
{ "type": "Feature", "properties": { "nom": "Au Trésor‐du‐Boisé", "rang": "338", "adresse": "3925 Rue Claude-Henri-Grignon, Saint-Laurent, QC H4R 3K2, Canada" }, "geometry": { "type": "Point", "coordinates": [ -73.7182527, 45.5091518 ] } },
{ "type": "Feature", "properties": { "nom": "Westpark", "rang": "339", "adresse": "Montreal, QC, Canada" }, "geometry": { "type": "Point", "coordinates": [ -73.5673919, 45.5018869 ] } },
{ "type": "Feature", "properties": { "nom": "Edgewater", "rang": "340", "adresse": "Montreal, QC, Canada" }, "geometry": { "type": "Point", "coordinates": [ -73.5673919, 45.5018869 ] } },
{ "type": "Feature", "properties": { "nom": "Saint John Fisher Senior", "rang": "341", "adresse": "121 Av. Summerhill, Pointe-Claire, QC H9R 2L8, Canada" }, "geometry": { "type": "Point", "coordinates": [ -73.7952894, 45.4563192 ] } },
{ "type": "Feature", "properties": { "nom": "Forest Hill Senior", "rang": "342", "adresse": "Av. Forest Hill, Montréal, QC H3V, Canada" }, "geometry": { "type": "Point", "coordinates": [ -73.6078876, 45.4948794 ] } },
{ "type": "Feature", "properties": { "nom": "Forest Hill Junior", "rang": "343", "adresse": "Av. Forest Hill, Montréal, QC H3V, Canada" }, "geometry": { "type": "Point", "coordinates": [ -73.6078876, 45.4948794 ] } },
{ "type": "Feature", "properties": { "nom": "Lanaudière", "rang": "344", "adresse": "4300 R.de Lanaudière, Montréal, QC H2J 3N9, Canada" }, "geometry": { "type": "Point", "coordinates": [ -73.574178800000013, 45.5288062 ] } },
{ "type": "Feature", "properties": { "nom": "Marguerite‐Bourgeoys", "rang": "345", "adresse": "2070 Rue Plessis, Montréal, QC H2L 2Y3, Canada" }, "geometry": { "type": "Point", "coordinates": [ -73.561949, 45.523950199999987 ] } },
{ "type": "Feature", "properties": { "nom": "Émile‐Nelligan", "rang": "346", "adresse": "101 Rue Charlevoix, Kirkland, QC H9J 3E2, Canada" }, "geometry": { "type": "Point", "coordinates": [ -73.8804012, 45.4494075 ] } },
{ "type": "Feature", "properties": { "nom": "Paul‐Bruchési", "rang": "347", "adresse": "1310 Bd Saint-Joseph E, Montréal, QC H2J 1M2, Canada" }, "geometry": { "type": "Point", "coordinates": [ -73.5818792, 45.5321878 ] } },
{ "type": "Feature", "properties": { "nom": "Mount Pleasant", "rang": "348", "adresse": "Av. Mount Pleasant, Montréal, QC H3Y, Canada" }, "geometry": { "type": "Point", "coordinates": [ -73.5949725, 45.4897145 ] } },
{ "type": "Feature", "properties": { "nom": "Catherine‐Soumillard", "rang": "349", "adresse": "250 48e Avenue, Lachine, QC H8T 2R8, Canada" }, "geometry": { "type": "Point", "coordinates": [ -73.7093685, 45.4402591 ] } },
{ "type": "Feature", "properties": { "nom": "Des Coquelicots", "rang": "350", "adresse": "7301 Rue Churchill, Verdun, QC H4H 2L1, Canada" }, "geometry": { "type": "Point", "coordinates": [ -73.5873847, 45.4378214 ] } }
]
}
